ID,Address,Name,Latitude,Longitude
1,Udupi Karnataka 576101 INDIA,AAA,13.33183500000007,74.75456407500008
2,Mangalore Karnataka 575001 INDIA,BBB,12.874880000000076,74.83637343100008
3,Bangalore Karnataka 560001 INDIA,CCC,12.97918500000003,77.60662343000007
4,Hyderabad Telangana 500001 INDIA,DDD,17.396225000000072,78.46876418900007
5,New Delhi Delhi 110001 INDIA,EEE,28.623410000000035,77.22255833300005
